,ID,ICAO,Country,AirportName,longitude,latitude,Year,PAX,cargo,Population100km,Island,SouthIsland,Routes,RunwayCount,NUTS0,NUTS1,NUTS2,NUTS3,Tourists,Area,GDPpc,hub,international,ownership,RunwayLength
3,1655,LOWG,Austria,Graz,15.439628,46.991067,2011,959463,216,3786228,0,0,33,1,AT,AT2,AT22,AT221,2918229,16401,29500,0,1,public,3000
6,1660,LOWI,Austria,Innsbruck,11.343964,47.260219,2011,995848,368,3634675.75,0,0,60,1,AT,AT3,AT33,AT332,8062246,12640.2,34200,0,1,public,2000
2,1666,LOWK,Austria,Woerthersee International Airport,14.337739,46.642514,2011,377974,0,2598923.75,0,0,12,1,AT,AT2,AT21,AT211,2489436,9538,28200,0,1,public,2720
4,1670,LOWL,Austria,Linz,14.187511,48.233219,2011,659787,5964,2765732.75,0,0,14,1,AT,AT3,AT31,AT312,2253674,11979.9,33500,0,1,public,3000
5,1678,LOWS,Austria,Salzburg,13.004333,47.793304,2011,1695962,162,3180088,0,0,110,1,AT,AT3,AT32,AT323,5148105,7156,38800,0,1,public,2750
1,1680,LOWW,Austria,Schwechat,16.569722,48.110278,2011,21106426,213293,4828885,0,0,507,2,AT,AT1,AT12,AT127,2254364,19186.3,27100,1,1,major private,7100
7,9,EBAW,Belgium,Deurne,4.460278,51.189444,2011,114681,499,14916793,0,0,4,1,BE,BE2,BE21,BE211,1687084,2867,36500,0,1,public,1510
8,12,EBBR,Belgium,Brussels Natl,4.484444,50.901389,2011,18613386,386652,13292577,0,0,455,3,BE,BE2,BE24,BE241,927931,2106,32600,1,1,major private,9836
9,20,EBCI,Belgium,Brussels South,4.453817,50.459197,2011,5883173,16698,10773456,0,0,117,1,BE,BE3,BE32,BE322,447022,3786,20500,0,1,minor private,2550
11,862,LBBG,Bulgaria,Burgas,27.515236,42.569583,2011,2227430,5980,1351649.75,0,0,8,1,BG,BG3,BG34,BG341,1225390,19796.9,9300,0,1,private,3200
12,869,LBSF,Bulgaria,Sofia,23.406167,42.695194,2011,3465823,15880,2721166,0,0,126,1,BG,BG4,BG41,BG411,1194255,20254.7,19200,0,1,public,3600
10,871,LBWN,Bulgaria,Varna,27.825106,43.232072,2011,1164805,41,1393060,0,0,12,1,BG,BG3,BG33,BG331,1254892,14644.6,9400,0,1,private,2517
204,886,LDDU,Croatia,Dubrovnik,18.268244,42.561353,2011,1326250,389,1064242.5,0,0,16,1,HR,HR0,HR03,HR037,7306506,24705,14800,0,1,public,3300
205,890,LDPL,Croatia,Pula,13.922192,44.893533,2011,344640,2,781419.25,0,0,2,1,HR,HR0,HR03,HR036,7306506,24705,14800,0,1,public,2950
206,895,LDSP,Croatia,Split,16.297964,43.538944,2011,1271202,619,1494188.875,0,0,16,1,HR,HR0,HR03,HR035,7306506,24705,14800,0,1,public,2550
202,902,LDZA,Croatia,Zagreb,16.068778,45.742931,2011,2262627,7270,3591228.25,0,0,74,1,HR,HR0,HR04,HR042,1214444,31889,15900,0,1,public,3252
207,905,LDZD,Croatia,Zadar,15.346697,44.108269,2011,265982,0,954952.125,0,0,4,2,HR,HR0,HR03,HR033,7306506,24705,14800,0,1,public,4500
18,878,LCLK,Cyprus,Larnaca,33.62485,34.875117,2011,5431272,29133,762166.5,0,0,109,1,CY,CY0,CY00,CY000,2494714,9251,24900,0,1,private,2994
19,880,LCPH,Cyprus,Pafos Intl,32.485731,34.718039,2011,1759292,347,646777.5,0,0,52,1,CY,CY0,CY00,CY000,2494714,9251,24900,0,1,private,2699
21,1632,LKKV,Czech Republic,Karlovy Vary,12.914983,50.202978,2011,96291,64,4491133.5,0,0,14,1,CZ,CZ0,CZ04,CZ041,1040052,8648.9,16700,0,1,public,2150
24,1640,LKMT,Czech Republic,Mosnov,18.111053,49.696292,2011,245596,1765,7635148.5,0,0,2,1,CZ,CZ0,CZ08,CZ080,572306,5426.8,18500,0,1,public,3500
22,1641,LKPD,Czech Republic,Pardubice,15.738647,50.013419,2011,59034,108,4326763,0,0,6,1,CZ,CZ0,CZ05,CZ053,1782282,12440.4,17800,0,1,public,2500
20,1648,LKPR,Czech Republic,Ruzyne,14.26,50.100833,2011,11724179,62644,4620807,0,0,259,3,CZ,CZ0,CZ01,CZ010,5050923,496.1,45600,0,1,public,9085
23,1651,LKTB,Czech Republic,Turany,16.694433,49.151269,2011,525432,4625,3614143.5,0,0,6,1,CZ,CZ0,CZ06,CZ064,1473681,13990.2,19500,0,1,public,2650
54,523,EKAH,Denmark,Aarhus,10.619008,56.300017,2011,587559,423,1523462.125,0,0,14,2,DK,DK0,DK04,DK042,895961,13000.4,29700,0,1,public,5479
52,524,EKBI,Denmark,Billund,9.151778,55.740322,2011,2638612,13749,2086357.375,0,0,62,1,DK,DK0,DK03,DK032,507748,12321.6,29000,0,1,public,3100
51,531,EKCH,Denmark,Kastrup,12.655972,55.617917,2011,22606904,141331,3342740,0,0,417,3,DK,DK0,DK01,DK011,2380767,2546.2,40200,1,1,major private,9700
53,536,EKEB,Denmark,Esbjerg,8.553403,55.525942,2011,87196,150,1297023.25,0,0,2,1,DK,DK0,DK03,DK032,1550590,12321.6,29000,0,0,public,2599
55,542,EKKA,Denmark,Karup,9.124628,56.297458,2011,292972,3,1896949.625,0,0,2,4,DK,DK0,DK04,DK041,895961,13000.4,29700,0,0,public,7703
56,546,EKYT,Denmark,Aalborg,9.849164,57.092789,2011,1377821,32,983411.75,0,0,22,2,DK,DK0,DK05,DK050,829918,7873.2,27700,0,1,public,5203
57,147,EETN,Estonia,Tallinn,24.832844,59.413317,2011,1907569,18341,1655353,0,0,69,1,EE,EE0,EE00,EE001,2725937,45227,17800,0,1,public,3070
135,153,EFET,Finland,Enontekio,23.424322,68.362586,2011,18238,0,17901.6875,0,0,4,1,FI,FI1,FI1D,FI1D7,3263606,226782.8,24700,0,0,public,2001
132,156,EFHK,Finland,Helsinki Vantaa,24.963333,60.317222,2011,14871299,170934,1835083.75,0,0,302,3,FI,FI1,FI1B,FI1B1,3104074,9567.9,40100,1,1,public,9461
136,162,EFIV,Finland,Ivalo,27.405328,68.607269,2011,125318,9,21898.26563,0,0,6,1,FI,FI1,FI1D,FI1D7,3263606,226782.8,24700,0,0,public,2499
137,168,EFJO,Finland,Joensuu,29.60755,62.662906,2011,117109,35,238684.4063,0,0,2,1,FI,FI1,FI1D,FI1D3,3263606,226782.8,24700,0,0,public,2500
126,174,EFJY,Finland,Jyvaskyla,25.678253,62.399453,2011,88823,17,392766.5625,0,0,4,1,FI,FI1,FI19,FI193,2307441,64760.4,27700,0,0,public,2601
138,177,EFKE,Finland,Kemi Tornio,24.5991,65.781889,2011,93753,23,223646.8438,0,0,4,1,FI,FI1,FI1D,FI1D7,3263606,226782.8,24700,0,0,public,2503
139,184,EFKI,Finland,Kajaani,27.692414,64.285472,2011,78071,47,132622.8125,0,0,4,1,FI,FI1,FI1D,FI1D4,3263606,226782.8,24700,0,0,public,2500
127,187,EFKK,Finland,Kruunupyy,23.143131,63.721172,2011,94555,24,226625.1719,0,0,6,2,FI,FI1,FI19,FI195,2307441,64760.4,27700,0,0,public,3200
140,193,EFKS,Finland,Kuusamo,29.239381,65.987575,2011,91696,3,42084.44922,0,0,4,1,FI,FI1,FI1D,FI1D6,3263606,226782.8,24700,0,1,public,2500
141,200,EFKT,Finland,Kittila,24.84685,67.701022,2011,237999,8,25070.43359,0,0,14,1,FI,FI1,FI1D,FI1D7,3263606,226782.8,24700,0,1,public,2500
142,203,EFKU,Finland,Kuopio,27.797756,63.00715,2011,284098,32,287885.5625,0,0,4,1,FI,FI1,FI1D,FI1D2,3263606,226782.8,24700,0,1,public,2800
133,209,EFLP,Finland,Lappeenranta,28.144397,61.044553,2011,116369,0,643170.0625,0,0,4,1,FI,FI1,FI1C,FI1C5,1840400,35739.6,26700,0,1,public,2500
147,214,EFMA,Finland,Mariehamn,19.898156,60.122203,2011,53562,375,118992.6563,1,0,8,1,FI,FI2,FI20,FI200,211047,1579.9,35200,0,1,public,1903
143,219,EFOU,Finland,Oulu,25.354564,64.930061,2011,973127,2094,326247.0313,0,0,8,1,FI,FI1,FI1D,FI1D6,3263606,226782.8,24700,0,1,public,2501
128,222,EFPO,Finland,Pori,21.799983,61.461686,2011,53619,10,427952.4063,0,0,2,2,FI,FI1,FI19,FI196,2307441,64760.4,27700,0,0,public,3152
144,227,EFRO,Finland,Rovaniemi,25.830411,66.564822,2011,395473,132,105715.9922,0,0,6,1,FI,FI1,FI1D,FI1D7,3263606,226782.8,24700,0,1,public,3002
145,235,EFSA,Finland,Savonlinna,28.945136,61.943064,2011,14113,2,497259.0625,0,0,4,1,FI,FI1,FI1D,FI1D1,3263606,226782.8,24700,0,0,public,2300
129,239,EFTP,Finland,Tampere Pirkkala,23.604392,61.414147,2011,657368,478,737360.3125,0,0,18,1,FI,FI1,FI19,FI197,2307441,64760.4,27700,0,1,public,2700
134,245,EFTU,Finland,Turku,22.262808,60.514142,2011,376767,7693,631342.375,0,0,16,1,FI,FI1,FI1C,FI1C1,1840400,35739.6,26700,0,1,public,2500
130,249,EFVA,Finland,Vaasa,21.762175,63.05065,2011,338140,16,292083.4063,0,0,9,1,FI,FI1,FI19,FI195,2307441,64760.4,27700,0,1,public,2500
146,256,EFVR,Finland,Varkaus,27.868611,62.171111,2011,8671,1,581945.5,0,0,4,1,FI,FI1,FI1D,FI1D1,3263606,226782.8,24700,0,0,public,2000
174,1046,LFBA,France,La Garenne,0.590556,44.174721,2011,34875,0,2138414.75,0,0,2,1,FR,FR6,FR61,FR614,8642878,41308.4,25100,0,0,public,2165
173,1050,LFBD,France,Merignac,-0.715556,44.828335,2011,4020670,7966,1900495.25,0,0,100,2,FR,FR6,FR61,FR612,8642878,41308.4,25100,0,1,public,5515
171,1056,LFBE,France,Roumaniere,0.518611,44.825279,2011,290020,0,2307412,0,0,8,1,FR,FR6,FR61,FR611,8642878,41308.4,25100,0,1,public,2205
169,1064,LFBH,France,La Rochelle-Ile de Re,-1.19528,46.1792,2011,227841,0,1597773,0,0,6,1,FR,FR5,FR53,FR532,4332333,25809.5,22700,0,1,public,2255
170,1066,LFBI,France,Biard,0.306666,46.587745,2011,90713,0,1793047,0,0,6,1,FR,FR5,FR53,FR534,4332333,25809.5,22700,0,1,public,2350
181,1071,LFBL,France,Bellegarde,1.179444,45.862778,2011,335111,332,1348146.5,0,0,20,1,FR,FR6,FR63,FR633,1252700,16942.3,21000,0,1,public,2440
178,1079,LFBO,France,Blagnac,1.363819,43.629075,2011,6936702,54724,2442515.25,0,0,141,2,FR,FR6,FR62,FR623,6323339,45347.9,24900,0,1,public,6500
175,1083,LFBP,France,Pau Pyrenees,-0.418611,43.38,2011,639020,1808,1333788.875,0,0,14,1,FR,FR6,FR61,FR615,8642878,41308.4,25100,0,1,public,2500
179,1088,LFBT,France,Lourdes,-0.006439,43.178675,2011,446347,0,1100087,0,0,4,1,FR,FR6,FR62,FR626,6323339,45347.9,24900,0,0,private,2286
172,1094,LFBX,France,Bassillac,0.815556,45.198055,2011,5942,0,1635145.75,0,0,4,1,FR,FR6,FR61,FR611,8642878,41308.4,25100,0,0,public,1750
176,1100,LFBZ,France,Anglet,-1.523325,43.468419,2011,1031474,0,1949055.75,0,0,18,1,FR,FR6,FR61,FR615,8642878,41308.4,25100,0,1,public,2250
180,1103,LFCK,France,Mazamet,2.289183,43.55625,2011,37792,0,2563312.5,0,0,4,1,FR,FR6,FR62,FR627,6323339,45347.9,24900,0,0,public,1825
177,1106,LFCR,France,Marcillac,2.482672,44.407869,2011,139387,0,989356.25,0,0,8,1,FR,FR6,FR62,FR622,6323339,45347.9,24900,0,1,public,2100
160,1113,LFGJ,France,Tavaux,5.42725,47.039014,2011,2387,1341,2152925.75,0,0,2,1,FR,FR4,FR43,FR432,1780670,16202.3,22200,0,0,public,2800
188,1114,LFHP,France,Loudes,3.762889,45.080689,2011,7859,0,2282834.75,0,0,2,1,FR,FR7,FR72,FR723,2870290,26012.9,22900,0,0,public,1393
158,1120,LFJL,France,Metz Nancy Lorraine,6.251319,48.982142,2011,249884,0,4304313,0,0,10,1,FR,FR4,FR41,FR413,2934064,23547.4,21500,0,0,public,3050
200,1122,LFKB,France,Poretta,9.483731,42.552664,2011,1023566,7392,276498.875,0,0,16,1,FR,FR8,FR83,FR832,2370743,8679.8,23300,0,1,public,2520
201,1130,LFKC,France,Saint Catherine,8.793189,42.530753,2011,294352,5,250220.5,0,0,16,1,FR,FR8,FR83,FR832,2370743,8679.8,23300,0,0,public,2310
198,1132,LFKF,France,Sud Corse,9.097777,41.500557,2011,445286,0,387807,0,0,14,1,FR,FR8,FR83,FR831,2370743,8679.8,23300,0,1,public,2480
199,1139,LFKJ,France,Campo Dell Oro,8.802917,41.923637,2011,1171198,6060,287971.0938,0,0,28,1,FR,FR8,FR83,FR831,2370743,8679.8,23300,0,1,public,2407
185,1146,LFLB,France,Aix Les Bains,5.880225,45.63805,2011,233420,0,5101499,0,0,36,1,FR,FR7,FR71,FR717,15431523,43698.2,28400,0,1,private,2020
189,1150,LFLC,France,Auvergne,3.169169,45.786661,2011,388909,1859,1715209.375,0,0,12,1,FR,FR7,FR72,FR724,2870290,26012.9,22900,0,0,public,3015
184,1155,LFLL,France,Saint Exupery,5.090833,45.726387,2011,8318143,36294,5831906.5,0,0,248,2,FR,FR7,FR71,FR716,15431523,43698.2,28400,0,1,public,6670
186,1158,LFLP,France,Meythet,6.098764,45.929233,2011,42875,0,4505610.5,0,0,2,1,FR,FR7,FR71,FR718,15431523,43698.2,28400,0,0,public,1630
182,1166,LFLS,France,Saint Geoirs,5.329375,45.362944,2011,335060,0,5068765.5,0,0,40,1,FR,FR7,FR71,FR714,15431523,43698.2,28400,0,1,private,3050
187,1169,LFLW,France,Aurillac,2.421944,44.891388,2011,26407,0,951748.875,0,0,2,1,FR,FR7,FR72,FR722,2870290,26012.9,22900,0,0,public,1700
183,1176,LFMH,France,Boutheon,4.296389,45.540554,2011,108648,0,4550375,0,0,4,1,FR,FR7,FR71,FR715,15431523,43698.2,28400,0,1,public,2300
190,1178,LFMK,France,Salvaza,2.306317,43.215978,2011,368003,0,2685123.75,0,0,10,1,FR,FR8,FR81,FR811,8386692,27375.8,21800,0,1,public,2050
196,1182,LFML,France,Provence,5.213611,43.435555,2011,7223736,58937,3911000.25,0,0,200,2,FR,FR8,FR82,FR824,16245204,31399.6,26500,0,1,public,5870
195,1188,LFMN,France,Cote D'Azur,7.215872,43.658411,2011,10405876,17156,2049632.875,0,0,199,2,FR,FR8,FR82,FR823,16245204,31399.6,26500,0,1,public,5530
194,1193,LFMP,France,Rivesaltes,2.870667,42.740442,2011,367726,1,1626501.125,0,0,4,2,FR,FR8,FR81,FR815,8386692,27375.8,21800,0,1,public,3765
192,1201,LFMT,France,Mediterranee,3.963014,43.576194,2011,1308195,7304,2744916,0,0,26,2,FR,FR8,FR81,FR813,8386692,27375.8,21800,0,1,public,3700
193,1204,LFMU,France,Vias,3.353903,43.323522,2011,193702,0,2154663.75,0,0,6,1,FR,FR8,FR81,FR813,8386692,27375.8,21800,0,1,public,2000
151,1210,LFOB,France,Tille,2.112778,49.454444,2011,3677236,0,13540263,0,0,90,2,FR,FR2,FR22,FR222,2474268,19399.5,21600,0,1,minor private,3138
152,1215,LFOH,France,Octeville,0.088056,49.533889,2011,26956,1,2364254,0,0,2,1,FR,FR2,FR23,FR232,2466265,12317.4,24600,0,0,public,2300
150,1220,LFOK,France,Vatry,4.184492,48.776072,2011,50817,8322,1813812.375,0,0,2,1,FR,FR2,FR21,FR213,2328084,25605.8,25300,0,1,major private,3860
153,1222,LFOT,France,Val De Loire,0.727606,47.432222,2011,120485,0,2497549.25,0,0,6,1,FR,FR2,FR24,FR244,5069276,39150.9,23600,0,1,public,2404
149,1229,LFPG,France,Charles De Gaulle,2.55,49.012779,2011,60742357,1532724,13293436,0,0,905,4,FR,FR1,FR10,FR108,35536845,12012.3,46300,1,1,minor private,13815
148,1232,LFPO,France,Orly,2.359444,48.725278,2011,27099908,58788,13342493,0,0,349,3,FR,FR1,FR10,FR104,35536845,12012.3,46300,1,1,minor private,9370
157,1240,LFQQ,France,Lesquin,3.089444,50.561942,2011,1143242,78,9581430,0,0,46,2,FR,FR3,FR30,FR301,4123419,12414.1,22900,0,1,private,4405
164,1245,LFRB,France,Guipavas,-4.418539,48.447911,2011,968695,1439,1071734.875,0,0,16,2,FR,FR5,FR52,FR522,6401509,27207.9,23500,0,1,public,3800
166,1250,LFRD,France,Pleurtuit,-2.079958,48.587683,2011,131004,12,2051873.375,0,0,4,2,FR,FR5,FR52,FR523,6401509,27207.9,23500,0,1,public,3645
154,1254,LFRG,France,St Gatien,0.154306,49.365339,2011,119804,19,2584782,0,0,2,1,FR,FR2,FR25,FR251,3911201,17589.3,22900,0,0,public,2550
168,1261,LFRH,France,Lann Bihoue,-3.44,47.760555,2011,181524,0,1572727.75,0,0,6,2,FR,FR5,FR52,FR524,6401509,27207.9,23500,0,0,public,4073
155,1264,LFRK,France,Carpiquet,-0.45,49.173333,2011,99169,63,2035774.5,0,0,4,2,FR,FR2,FR25,FR251,3911201,17589.3,22900,0,0,public,3080
167,1271,LFRN,France,St Jacques,-1.734794,48.069508,2011,431698,12368,2926694,0,0,20,2,FR,FR5,FR52,FR523,6401509,27207.9,23500,0,0,public,2950
163,1273,LFRO,France,Lannion,-3.471656,48.754378,2011,35492,0,1250199,0,0,2,1,FR,FR5,FR52,FR521,6401509,27207.9,23500,0,0,public,1602
165,1281,LFRQ,France,Pluguffan,-4.167786,47.974981,2011,110804,0,1363615.75,0,0,2,1,FR,FR5,FR52,FR522,6401509,27207.9,23500,0,0,private,2150
161,1282,LFRS,France,Nantes Atlantique,-1.610725,47.153189,2011,3158378,8136,2902848.75,0,0,106,1,FR,FR5,FR51,FR511,6130277,32081.8,25200,0,1,public,2900
162,1288,LFRZ,France,Montoir,-2.149181,47.312189,2011,14112,17217,2854659.5,0,0,2,1,FR,FR5,FR51,FR511,6130277,32081.8,25200,0,0,public,2400
156,1294,LFSD,France,Longvic,5.09,47.26889,2011,44538,0,1643266.625,0,0,2,2,FR,FR2,FR26,FR261,4225666,31582,23500,0,0,public,4200
159,1299,LFST,France,Entzheim,7.628233,48.538319,2011,1065568,1995,7182723.5,0,0,55,1,FR,FR4,FR42,FR421,4400221,8280.2,26200,0,1,public,2400
197,1301,LFTH,France,Le Palyvestre,6.14603,43.0973,2011,574122,0,3167697,0,0,2,2,FR,FR8,FR82,FR825,16245204,31399.6,26500,0,1,public,4022
191,1308,LFTW,France,Garons,4.416347,43.757444,2011,192494,8,3854626.5,0,0,4,1,FR,FR8,FR81,FR812,8386692,27375.8,21800,0,1,private,2443
32,22,EDDB,Germany,Schonefeld,13.5225,52.380001,2011,7098842,8589,5892805,0,0,136,1,DE,DE4,DE40,DE406,3928980,29483.1,22300,0,1,public,3600
46,28,EDDC,Germany,Dresden,13.767161,51.132767,2011,1902662,332,5035857.5,0,0,32,1,DE,DED,DED2,DED21,3350473,7931.3,23100,0,0,public,2850
50,32,EDDE,Germany,Erfurt,10.958106,50.979811,2011,264726,1221,4513555.5,0,0,4,1,DE,DEG,DEG0,DEG01,3367940,16172.5,21900,0,0,public,2600
35,38,EDDF,Germany,Frankfurt Main,8.543125,50.026421,2011,56276006,2214648,9690161,0,0,876,4,DE,DE7,DE71,DE712,8139430,7444.9,41500,1,1,public,14000
41,41,EDDG,Germany,Munster Osnabruck,7.684831,52.134642,2011,1293315,0,11035228,0,0,13,1,DE,DEA,DEA3,DEA37,1731343,6911.4,28200,0,0,public,2170
34,47,EDDH,Germany,Hamburg,9.988228,53.630389,2011,13528395,27428,6186816,0,0,233,2,DE,DE6,DE60,DE600,5083172,755.2,51100,0,1,minor private,6916
40,55,EDDK,Germany,Koln Bonn,7.142744,50.865917,2011,9599976,727460,16231060,0,0,161,3,DE,DEA,DEA2,DEA23,5980577,7364.4,33200,0,1,public,8139
38,57,EDDL,Germany,Dusseldorf,6.766775,51.289453,2011,20298970,81250,18366256,0,0,449,2,DE,DEA,DEA1,DEA11,5564087,5291,35000,1,1,minor private,5700
28,62,EDDM,Germany,Franz Josef Strauss,11.786086,48.353783,2011,37593829,303667,6406240,0,0,643,2,DE,DE2,DE21,DE21A,13056151,17529.8,44700,1,1,public,8000
29,70,EDDN,Germany,Nurnberg,11.066897,49.4987,2011,3933626,7913,5091436.5,0,0,76,1,DE,DE2,DE25,DE254,3255754,7244.9,34700,0,1,public,2700
47,75,EDDP,Germany,Leipzig Halle,12.241633,51.432447,2011,1834406,744028,5281172.5,0,0,40,2,DE,DED,DED5,DED53,1638033,3964.7,24800,0,1,public,7200
45,78,EDDR,Germany,Saarbrucken,7.109508,49.214553,2011,411473,282,7013697,0,0,22,1,DE,DEC,DEC0_,DEC1_,749453,410.62,23100,0,0,public,2000
25,84,EDDS,Germany,Stuttgart,9.221964,48.689878,2011,9536000,30359,9464304,0,0,217,1,DE,DE1,DE11,DE113,4842325,10557.7,40100,0,1,public,3345
31,88,EDDT,Germany,Tegel,13.287711,52.559686,2011,16892424,26710,5749784.5,0,0,337,2,DE,DE3,DE30,DE300,9852160,887.7,29900,1,1,public,5451
37,91,EDDV,Germany,Hannover,9.685078,52.461056,2011,5302487,16814,6504645,0,0,116,3,DE,DE9,DE92,DE929,2816321,9047.7,31300,0,1,minor private,6910
33,100,EDDW,Germany,Neuenland,8.786667,53.0475,2011,2552632,719,6541925,0,0,58,2,DE,DE5,DE50,DE501,1100013,419.2,40800,0,1,public,3334
44,101,EDFH,Germany,Frankfurt Hahn,7.263892,49.948672,2011,2829589,221541,8558615,0,0,66,1,DE,DEB,DEB1,DEB19,3341707,8073,27500,0,1,public,3800
48,106,EDHL,Germany,Lubeck Blankensee,10.719222,53.805367,2011,329159,0,5390073,0,0,10,1,DE,DEF,DEF0,DEF03,5965744,15799.3,25800,0,1,public,2102
30,111,EDJA,Germany,Allgau,10.2395,47.988758,2011,755458,0,6777453.5,0,0,24,1,DE,DE2,DE27,DE27C,3951965,9993.4,32000,0,1,public,2981
42,120,EDLP,Germany,Paderborn Lippstadt,8.616317,51.614089,2011,954095,30,9138973,0,0,20,1,DE,DEA,DEA4,DEA47,1682482,6520.8,31000,0,0,public,2180
39,121,EDLV,Germany,Niederrhein,6.141944,51.602222,2011,2410060,0,19145966,0,0,58,1,DE,DEA,DEA1,DEA1B,5564087,5291,35000,0,1,public,2440
43,126,EDLW,Germany,Dortmund,7.612242,51.518314,2011,1808956,32,16210655,0,0,36,1,DE,DEA,DEA5,DEA52,3378828,8004.7,28900,0,1,public,2000
27,132,EDNY,Germany,Friedrichshafen,9.511486,47.671317,2011,539376,1,6448766.5,0,0,16,1,DE,DE1,DE14,DE147,2606531,8917.7,34400,0,1,public,2356
26,137,EDSB,Germany,Baden Airpark,8.08048,48.7793,2011,1107496,608,10252175,0,0,24,1,DE,DE1,DE12,DE124,4216897,6919.1,35300,0,1,public,3060
49,141,EDXW,Germany,Westerland Sylt,8.340472,54.91325,2011,195438,0,1033463.938,0,0,2,2,DE,DEF,DEF0,DEF07,5965744,15799.3,25800,0,0,public,3816
36,793,ETNL,Germany,Laage,12.278333,53.918167,2011,164227,4,1719766.75,0,0,10,1,DE,DE8,DE80,DE809,6659366,23190.8,21600,0,0,public,2500
58,1312,LGAL,Greece,Dimokritos,25.956264,40.855869,2011,238265,470,1030575.938,0,0,4,1,EL,EL1,EL11,EL111,561992,14157,14400,0,0,public,2582
69,1320,LGAV,Greece,Eleftherios Venizelos Intl,23.944467,37.936358,2011,14325505,75143,4535767,0,0,257,2,EL,EL3,EL30,EL300,3450914,3808,27500,0,1,minor private,7800
71,1323,LGHI,Greece,Chios,26.140572,38.343175,2011,229500,338,1595638.625,1,1,6,1,EL,EL4,EL41,EL413,371239,3836,15600,0,1,public,1511
72,1328,LGIK,Greece,Ikaria,26.347061,37.682717,2011,37534,64,1257990,1,1,5,1,EL,EL4,EL41,EL412,371239,3836,15600,0,0,public,1381
62,1334,LGIO,Greece,Ioannina,20.8225,39.696388,2011,88597,0,796917.375,0,0,2,1,EL,EL2,EL21,EL213,677418,9203,14300,0,0,public,2400
88,1341,LGIR,Greece,Nikos Kazantzakis,25.180297,35.339719,2011,5247007,1728,431578.8438,0,0,20,2,EL,EL4,EL43,EL431,3487511,8336,16900,0,1,public,4280
70,1345,LGKC,Greece,Kithira,23.016978,36.274258,2011,27391,73,72178.125,1,1,4,1,EL,EL3,EL30,EL300,3450914,3808,27500,0,0,public,1461
63,1347,LGKF,Greece,Kefallinia,20.500481,38.120069,2011,346397,57,360201.4063,1,1,6,1,EL,EL2,EL22,EL223,2079661,2307,18100,0,1,public,2436
76,1356,LGKJ,Greece,Kastelorizo,29.566656,36.127777,2011,8723,40,1014948.25,0,0,2,1,EL,EL4,EL42,EL421,3762195,5286,20800,0,0,public,800
68,1357,LGKL,Greece,Kalamata,22.025525,37.068319,2011,99451,0,458597.3438,0,0,4,1,EL,EL2,EL25,EL255,1202907,15490,16100,0,1,public,2703
77,1365,LGKO,Greece,Kos,27.091667,36.793335,2011,1926223,737,494946.9063,1,1,8,1,EL,EL4,EL42,EL421,3762195,5286,20800,0,1,public,2400
89,1367,LGKP,Greece,Karpathos,27.146008,35.421408,2011,181084,11,16116.68945,1,1,6,1,EL,EL4,EL42,EL421,3762195,5286,20800,0,1,public,2399
64,1376,LGKR,Greece,Ioannis Kapodistrias Intl,19.911667,39.601944,2011,1844173,323,502612.875,1,1,6,1,EL,EL2,EL22,EL222,2079661,2307,18100,0,1,public,2373
78,1381,LGKS,Greece,Kasos,26.910047,35.421358,2011,4866,44,28329.70508,1,1,4,1,EL,EL4,EL42,EL421,3762195,5286,20800,0,0,public,982
59,1387,LGKV,Greece,Megas Alexandros Intl,24.619223,40.913306,2011,252307,526,817322.625,0,0,2,1,EL,EL1,EL11,EL115,561992,14157,14400,0,1,public,3000
79,1388,LGKY,Greece,Kalymnos Island,26.940556,36.963333,2011,24249,47,552469.25,0,0,6,1,EL,EL4,EL42,EL421,3762195,5286,20800,0,0,public,1135
80,1397,LGLE,Greece,Leros,26.800289,37.184903,2011,30906,88,698422.625,1,1,6,1,EL,EL4,EL42,EL421,3762195,5286,20800,0,0,public,1012
73,1400,LGLM,Greece,Limnos,25.236308,39.917072,2011,92952,173,117298.4688,1,1,8,1,EL,EL4,EL41,EL411,371239,3836,15600,0,0,public,3016
81,1407,LGMK,Greece,Mikonos,25.348103,37.435128,2011,482809,65,96653.22656,1,1,4,1,EL,EL4,EL42,EL422,3762195,5286,20800,0,1,public,1903
82,1410,LGML,Greece,Milos,24.4775,36.696111,2011,30351,50,72751.99219,1,1,2,1,EL,EL4,EL42,EL422,3762195,5286,20800,0,0,public,1030
74,1414,LGMT,Greece,Mitilini,26.598333,39.056667,2011,469380,578,2871166.75,0,0,14,1,EL,EL4,EL41,EL411,371239,3836,15600,0,1,public,2406
83,1422,LGNX,Greece,Naxos,25.368056,37.080556,2011,25783,0,104666.3516,1,1,2,1,EL,EL4,EL42,EL422,3762195,5286,20800,0,0,public,901
84,1427,LGPA,Greece,Paros,25.127778,37.010278,2011,36271,0,100584.3984,1,1,2,1,EL,EL4,EL42,EL422,3762195,5286,20800,0,0,public,710
85,1429,LGPL,Greece,Astypalaia,26.375822,36.579886,2011,13350,0,97592.65625,0,0,4,1,EL,EL4,EL42,EL421,3762195,5286,20800,0,0,public,989
66,1434,LGPZ,Greece,Aktio,20.765311,38.925467,2011,294156,0,573367.9375,0,0,3,1,EL,EL2,EL23,EL231,766302,11350,15300,0,1,public,2871
90,1440,LGRP,Greece,Rhodes Diagoras,28.086192,36.405419,2011,4148386,1779,596068.125,1,1,22,1,EL,EL4,EL42,EL421,3762195,5286,20800,0,1,public,3305
91,1447,LGSA,Greece,Souda,24.149678,35.531747,2011,1774708,1282,426072.5938,0,0,8,1,EL,EL4,EL43,EL434,3487511,8336,16900,0,1,public,3347
61,1453,LGSK,Greece,Alexandros Papadiamantis,23.503675,39.1771,2011,246658,0,587438.125,1,1,2,1,EL,EL1,EL14,EL143,1145362,14037,14500,0,1,public,1628
75,1456,LGSM,Greece,Samos,26.911667,37.689999,2011,408720,468,2682195.25,1,1,8,1,EL,EL4,EL41,EL412,371239,3836,15600,0,1,public,2100
86,1462,LGSO,Greece,Syros Airport,24.950936,37.422792,2011,9872,9,142605.8594,1,1,2,1,EL,EL4,EL42,EL422,3762195,5286,20800,0,0,public,1080
87,1464,LGSR,Greece,Santorini,25.479333,36.399169,2011,785547,168,53563.62109,1,1,4,1,EL,EL4,EL42,EL422,3762195,5286,20800,0,1,public,2125
95,1469,LGST,Greece,Sitia,26.101325,35.216108,2011,39604,13,291429.5,0,0,6,1,EL,EL4,EL43,EL43X,3487511,8336,16900,0,0,public,2074
67,1475,LGSY,Greece,Skiros,24.487228,38.967553,2011,4488,0,196610.9688,1,1,2,1,EL,EL2,EL24,EL242,750867,15549,17400,0,1,public,3002
60,1484,LGTS,Greece,Makedonia,22.97095,40.519725,2011,3958475,7077,1931934,0,0,84,2,EL,EL1,EL12,EL122,2613618,19147,15900,0,1,public,4850
65,1487,LGZA,Greece,Dionysios Solomos,20.88425,37.750853,2011,920701,0,524455.75,1,1,6,1,EL,EL2,EL22,EL221,2079661,2307,18100,0,1,public,2228
203,1492,LHBP,Hungary,Ferihegy,19.255592,47.436933,2011,8884837,68860,4824555,0,0,168,2,HU,HU1,HU10,HU101,3095243,6916.3,27500,0,1,major private,6717
213,4,BIKF,Iceland,Keflavik International Airport,-22.605556,63.985,2011,2462894,37558,224556.9688,0,0,58,2,IS,IS0,IS00,IS002,495000,103000,29900,0,1,public,6119
209,495,EICK,Ireland,Cork,-8.491111,51.841269,2011,2350843,795,914354.875,0,0,57,2,IE,IE0,IE02,IE025,2727206.501,36545,38000,0,1,public,3443
210,502,EIDW,Ireland,Dublin,-6.270075,53.421333,2011,18719711,101193,2305266.25,0,0,301,2,IE,IE0,IE02,IE021,2727206.501,36545,38000,1,1,public,4709
208,504,EIKN,Ireland,Ireland West Knock,-8.818492,53.910297,2011,653237,15,656843.125,0,0,18,1,IE,IE0,IE01,IE013,2481463.143,33252,22700,0,1,private,2340
211,510,EIKY,Ireland,Kerry,-9.523783,52.180878,2011,310905,0,884056.4375,0,0,8,1,IE,IE0,IE02,IE025,2727206.501,36545,38000,0,1,private,2000
212,518,EINN,Ireland,Shannon,-8.924817,52.701978,2011,1342753,16608,1093228.375,0,0,21,1,IE,IE0,IE02,IE023,2727206.501,36545,38000,0,1,public,3199
222,1495,LIBD,Italy,Bari,16.760594,41.138856,2011,3700248,2127,2797964.75,0,0,76,2,IT,ITF,ITF4,ITF47,3230905,19357.9,16800,0,1,public,4695
220,1500,LIBP,Italy,Pescara,14.181067,42.431656,2011,545099,1200,1888142.125,0,0,18,1,IT,ITF,ITF1,ITF14,1580898,10762.7,23300,0,1,private,2419
223,1503,LIBR,Italy,Casale,17.947033,40.657633,2011,2049754,75,2142410.75,0,0,34,2,IT,ITF,ITF4,ITF44,3230905,19357.9,16800,0,1,public,4844
224,1510,LICA,Italy,Lamezia Terme,16.242269,38.905394,2011,2293744,1774,1777561.25,0,0,26,1,IT,ITF,ITF6,ITF63,1515796,15080.6,16000,0,1,major private,2414
226,1511,LICC,Italy,Catania Fontanarossa,15.0664,37.466781,2011,6771238,8966,3018115.75,0,0,119,1,IT,ITG,ITG1,ITG17,4221641,25711.4,16800,0,1,public,2436
227,1517,LICD,Italy,Lampedusa,12.618083,35.497914,2011,161291,58,5698.001465,1,1,4,1,IT,ITG,ITG1,ITG14,4221641,25711.4,16800,0,0,public,1795
228,1521,LICG,Italy,Pantelleria,11.968864,36.816519,2011,132487,61,180693.9219,1,1,4,2,IT,ITG,ITG1,ITG11,4221641,25711.4,16800,0,0,public,2895
229,1523,LICJ,Italy,Palermo,13.091019,38.175958,2011,4966162,1976,1842330.5,0,0,70,2,IT,ITG,ITG1,ITG12,4221641,25711.4,16800,0,1,public,5394
225,1529,LICR,Italy,Reggio Calabria,15.651556,38.071206,2011,519454,131,2334610.75,0,0,12,2,IT,ITF,ITF6,ITF65,1515796,15080.6,16000,0,0,private,3665
230,1531,LICT,Italy,Trapani Birgi,12.487961,37.911403,2011,1468041,13,1626062,0,0,38,1,IT,ITG,ITG1,ITG11,4221641,25711.4,16800,0,1,minor private,2695
231,1534,LIEA,Italy,Alghero,8.290772,40.632133,2011,1511472,1580,586028.25,0,0,35,1,IT,ITG,ITG2,ITG25,2242707,24089.9,19400,0,1,major private,3000
232,1541,LIEE,Italy,Elmas,9.054283,39.251469,2011,3681944,3115,980981.1875,0,0,52,1,IT,ITG,ITG2,ITG27,2242707,24089.9,19400,0,1,public,2804
233,1544,LIEO,Italy,Olbia Costa Smeralda,9.517628,40.898661,2011,1825580,203,499913.2813,0,0,21,1,IT,ITG,ITG2,ITG29,2242707,24089.9,19400,0,1,major private,2445
217,1547,LIMC,Italy,Malpensa,8.728111,45.630606,2011,19087098,450445,9517737,0,0,372,2,IT,ITC,ITC4,ITC41,13258859,23862.8,35900,1,1,public,7840
218,1551,LIME,Italy,Bergamo Orio Al Serio,9.704166,45.673889,2011,8410684,112250,10155233,0,0,157,2,IT,ITC,ITC4,ITC46,13258859,23862.8,35900,0,1,minor private,3712
214,1555,LIMF,Italy,Torino,7.649631,45.200761,2011,3700108,944,4463072,0,0,80,1,IT,ITC,ITC1,ITC11,4247695,25402.5,28700,0,1,minor private,3300
216,1559,LIMJ,Italy,Genova Sestri,8.8375,44.413333,2011,1393985,451,3107309.75,0,0,28,1,IT,ITC,ITC3,ITC33,3839672,5421.6,29700,0,1,minor private,2916
219,1565,LIML,Italy,Linate,9.276739,45.445103,2011,9061749,19591,10335652,0,0,122,2,IT,ITC,ITC4,ITC4C,13258859,23862.8,35900,0,1,major private,3043
238,1569,LIMP,Italy,Parma,10.296367,44.824483,2011,268369,3,6604877.5,0,0,6,1,IT,ITH,ITH5,ITH52,9258418,22445.5,32500,0,1,major private,2122
215,1570,LIMZ,Italy,Levaldigi,7.623217,44.547019,2011,220958,0,4394060,0,0,10,1,IT,ITC,ITC1,ITC16,4247695,25402.5,28700,0,0,private,2104
239,1572,LIPE,Italy,Bologna,11.288667,44.535444,2011,5820813,32578,6128197,0,0,126,1,IT,ITH,ITH5,ITH55,9258418,22445.5,32500,0,1,minor private,2800
234,1577,LIPH,Italy,Treviso,12.194422,45.6484,2011,1075319,869,5324667.5,0,0,59,1,IT,ITH,ITH3,ITH34,15765623,18398.9,30300,0,0,major private,2420
240,1582,LIPK,Italy,Forli,12.070094,44.194753,2011,344168,544,4358956,0,0,8,1,IT,ITH,ITH5,ITH58,9258418,22445.5,32500,0,0,private,2560
237,1586,LIPQ,Italy,Ronchi Dei Legionari,13.472222,45.8275,2011,854252,204,3317623.75,0,0,18,1,IT,ITH,ITH4,ITH43,2085030,7858.4,28800,0,1,minor private,3000
241,1589,LIPR,Italy,Rimini,12.611747,44.020292,2011,913190,787,2569315.25,0,0,10,1,IT,ITH,ITH5,ITH59,9258418,22445.5,32500,0,1,private,2964
235,1593,LIPX,Italy,Villafranca,10.888533,45.395706,2011,3348933,334,7657473.5,0,0,91,1,IT,ITH,ITH3,ITH31,15765623,18398.9,30300,0,1,minor private,3068
245,1597,LIPY,Italy,Falconara,13.362222,43.616389,2011,597099,6997,2249718.75,0,0,14,1,IT,ITI,ITI3,ITI32,2260569,9365.9,25600,0,1,private,2962
236,1599,LIPZ,Italy,Venezia Tessera,12.351944,45.505278,2011,8553639,32695,4986670,0,0,188,2,IT,ITH,ITH3,ITH35,15765623,18398.9,30300,0,1,private,6080
246,1604,LIRA,Italy,Ciampino,12.594936,41.799361,2011,4741287,18848,5215173,0,0,66,1,IT,ITI,ITI4,ITI43,10298408,17236,33100,0,1,major private,2208
247,1607,LIRF,Italy,Fiumicino,12.250797,41.804475,2011,37404513,151867,4855704,0,0,594,4,IT,ITI,ITI4,ITI43,10298408,17236,33100,1,1,major private,15400
221,1612,LIRN,Italy,Capodichino,14.290781,40.886033,2011,5728402,3024,6111489.5,0,0,82,1,IT,ITF,ITF3,ITF33,4849622,13590.2,16500,0,1,major private,2628
242,1615,LIRP,Italy,Pisa,10.39275,43.683917,2011,4509561,6787,3422733.25,0,0,88,2,IT,ITI,ITI1,ITI17,11985798,22993.5,28400,0,1,major private,5785
243,1619,LIRQ,Italy,Firenze,11.2051,43.809953,2011,1893238,176,5248611.5,0,0,56,1,IT,ITI,ITI1,ITI14,11985798,22993.5,28400,0,1,major private,1750
244,1625,LIRZ,Italy,Perugia,12.513222,43.095906,2011,171071,0,3167004.25,0,0,8,1,IT,ITI,ITI2,ITI21,2210933,8456,24200,0,1,major private,2199
252,800,EVRA,Latvia,Riga Intl,23.971111,56.923611,2011,5098360,11571,1478427,0,0,184,1,LV,LV0,LV00,LV007,1584996,64562,14700,0,1,public,3200
248,803,EYKA,Lithuania,Kaunas Intl,24.084778,54.963919,2011,870801,4222,2131203,0,0,10,1,LT,LT0,LT00,LT002,1576910,65300,17000,0,1,public,3250
249,810,EYPA,Lithuania,Palanga Intl,21.093856,55.973228,2011,111788,10,784407.5,0,0,6,1,LT,LT0,LT00,LT003,1576910,65300,17000,0,1,public,2280
250,817,EYVI,Lithuania,Vilnius Intl,25.285767,54.634133,2011,1709406,5779,1979517,0,0,88,1,LT,LT0,LT00,LT00A,1576910,65300,17000,0,1,public,2515
251,552,ELLX,Luxembourg,Luxembourg,6.211517,49.626575,2011,1836920,666011,4292403.5,0,0,88,1,LU,LU0,LU00,LU000,934995,2586,68900,0,1,public,4000
254,469,EHAM,Netherlands,Schiphol,4.763889,52.308613,2011,49690392,1549445,11406186,0,0,791,5,NL,NL3,NL32,NL326,9357300,4091.8,42600,1,1,minor private,19467
257,477,EHBK,Netherlands,Maastricht,5.770144,50.911658,2011,337347,65402,15439983,0,0,16,1,NL,NL4,NL42,NL423,3279700,2209.2,28800,0,1,private,2500
256,481,EHEH,Netherlands,Eindhoven,5.374528,51.450139,2011,2670269,0,18023626,0,0,106,1,NL,NL4,NL41,NL414,3070900,5081.8,35600,0,1,minor private,3000
253,484,EHGG,Netherlands,Eelde,6.579444,53.11972,2011,115553,0,3670603.75,0,0,8,2,NL,NL1,NL13,NL131,1406200,2680.4,24600,0,1,minor private,4000
255,490,EHRD,Netherlands,Rotterdam,4.437222,51.956944,2011,1081841,47,12771079,0,0,40,1,NL,NL3,NL33,NL339,3513200,3418.5,35000,0,1,minor private,2200
264,556,ENAL,Norway,Vigra,6.110164,62.560372,2011,892080,430,222878.4844,0,0,22,1,NO,NO0,NO05,NO053,3531421,49177,36600,0,1,public,2314
275,560,ENAT,Norway,Alta,23.371667,69.976111,2011,346366,136,41283.98438,0,0,16,1,NO,NO0,NO07,NO073,2119041,112946,30300,0,0,public,2253
270,567,ENBO,Norway,Bodo,14.365278,67.269167,2011,1544353,1013,90575.23438,0,0,39,1,NO,NO0,NO07,NO071,2119041,112946,30300,0,0,public,2794
265,574,ENBR,Norway,Flesland,5.218142,60.293386,2011,5184549,2472,488928,0,0,104,1,NO,NO0,NO05,NO051,3531421,49177,36600,0,1,public,2990
261,582,ENCN,Norway,Kjevik,8.085369,58.204214,2011,945316,88,271839.75,0,0,20,1,NO,NO0,NO04,NO042,2397946,25810,37700,0,0,public,2035
271,585,ENDU,Norway,Bardufoss,18.540356,69.055758,2011,196980,1,148146.9531,0,0,2,1,NO,NO0,NO07,NO072,2119041,112946,30300,0,0,public,2443
272,589,ENEV,Norway,Evenes,16.678108,68.4913,2011,582338,176,114659.4609,0,0,14,1,NO,NO0,NO07,NO071,2119041,112946,30300,0,0,public,2808
266,597,ENFL,Norway,Floro,5.024722,61.583611,2011,122030,0,128414.5469,0,0,7,1,NO,NO0,NO05,NO052,3531421,49177,36600,0,0,public,1264
258,601,ENGM,Norway,Gardermoen,11.100361,60.193917,2011,21102984,61602,1676562.625,0,0,303,2,NO,NO0,NO01,NO012,3796580,5372,48300,1,1,public,6550
262,607,ENHD,Norway,Karmoy,5.208364,59.345267,2011,597053,63,467356.4688,0,0,16,1,NO,NO0,NO04,NO043,2397946,25810,37700,0,1,public,2120
267,612,ENKB,Norway,Kvernberget,7.824522,63.111781,2011,283591,20,154611.6094,0,0,10,1,NO,NO0,NO05,NO053,3531421,49177,36600,0,0,public,1840
273,618,ENKR,Norway,Hoybuktmoen,29.891295,69.725781,2011,295214,304,40391.76953,0,0,17,1,NO,NO0,NO07,NO073,2119041,112946,30300,0,0,public,2115
268,626,ENML,Norway,Aro,7.2625,62.744722,2011,434844,2542,233880.6719,0,0,12,1,NO,NO0,NO05,NO053,3531421,49177,36600,0,0,public,2220
259,642,ENRY,Norway,Moss,10.785389,59.378933,2011,1666446,0,1914655.75,0,0,46,1,NO,NO0,NO03,NO031,3125193,36616,27800,0,1,public,2442
274,656,ENTC,Norway,Langnes,18.918919,69.683333,2011,1698357,1402,108610.1016,0,0,45,1,NO,NO0,NO07,NO072,2119041,112946,30300,0,1,public,2447
260,661,ENTO,Norway,Torp,10.258628,59.186703,2011,1338616,230,1741236.25,0,0,55,1,NO,NO0,NO03,NO033,3125193,36616,27800,0,1,public,2989
269,665,ENVA,Norway,Vaernes,10.92425,63.457556,2011,3901645,723,348487.4688,0,0,79,1,NO,NO0,NO06,NO062,1499983,41271,31700,0,0,public,2999
263,672,ENZV,Norway,Sola,5.637856,58.876778,2011,3881453,1505,434533,0,0,81,2,NO,NO0,NO04,NO043,2397946,25810,37700,0,1,public,5005
284,673,EPBY,Poland,Bydgoszcz Ignacy Jan Paderewski Airport,17.9777,53.0968,2011,276705,372,3237448.5,0,0,12,1,PL,PL6,PL61,PL613,821482,17972,13600,0,1,public,2500
285,674,EPGD,Poland,Lech Walesa,18.466222,54.377569,2011,2456025,4854,2491356.25,0,0,92,1,PL,PL6,PL63,PL633,1661540,18310,16000,0,1,public,2800
278,679,EPKK,Poland,Balice,19.784836,50.077731,2011,2994359,1582,8229464,0,0,100,1,PL,PL2,PL21,PL214,3135371,15183,14800,0,1,public,2550
279,685,EPKT,Poland,Pyrzowice,19.080019,50.474253,2011,2513417,4207,8231605.5,0,0,56,1,PL,PL2,PL22,PL228,1805020,12333,17900,0,1,minor private,3200
276,686,EPLL,Poland,Reymont Airport,19.398133,51.721881,2011,384063,0,3886733.25,0,0,16,1,PL,PL1,PL11,PL113,1048186,18219,15400,0,1,public,2500
281,690,EPPO,Poland,Lawica,16.826325,52.421031,2011,1416685,1111,3194345.25,0,0,50,1,PL,PL4,PL41,PL415,1649602,29826,17500,0,1,public,2504
280,691,EPRZ,Poland,Jasionka,22.019,50.109958,2011,491173,492,3480146.75,0,0,16,1,PL,PL3,PL32,PL325,718911,17846,11700,0,1,public,3200
282,692,EPSC,Poland,Goleniow,14.902206,53.584731,2011,244663,667,1822078.625,0,0,10,1,PL,PL4,PL42,PL425,1863559,22892,14000,0,1,public,2500
277,693,EPWA,Poland,Okecie,20.967122,52.16575,2011,9352979,60576,5072829.5,0,0,232,2,PL,PL1,PL12,PL127,3311910,35558,26300,0,1,public,6490
283,698,EPWR,Poland,Strachowice,16.885836,51.102683,2011,1609014,871,4180059.5,0,0,60,1,PL,PL5,PL51,PL514,2026726,19947,19000,0,1,public,2500
287,1685,LPFR,Portugal,Faro,-7.965911,37.014425,2011,5617688,186,726332.625,0,0,116,1,PT,PT1,PT15,PT150,2938494,4996.8,19900,0,1,public,2490
289,1693,LPMA,Portugal,Madeira,-16.774453,32.697889,2011,2312923,6508,217042,1,1,105,1,PT,PT3,PT30,PT300,895168,801.1,20100,0,1,public,2781
286,1697,LPPR,Portugal,Porto,-8.681389,41.248055,2011,6004500,24470,4144011.75,0,0,152,1,PT,PT1,PT11,PT114,2924439,21285.8,16500,0,1,public,3480
290,1702,LPPS,Portugal,Porto Santo,-16.349975,33.073386,2011,108383,200,217042,1,1,6,1,PT,PT3,PT30,PT300,895168,801.1,20100,0,0,public,3000
288,1707,LPPT,Portugal,Lisboa,-9.135919,38.781311,2011,14806537,95311,3413181.25,0,0,368,2,PT,PT1,PT17,PT171,4179164,3001.9,28500,1,1,public,6109
293,1710,LRBC,Romania,Bacau,26.910278,46.521946,2011,293965,10,3285062.25,0,0,4,1,RO,RO2,RO21,RO211,696188,36849.8,7800,0,0,public,2500
291,1715,LRCL,Romania,Cluj Napoca,23.686167,46.785167,2011,1004946,744,2438844,0,0,32,1,RO,RO1,RO11,RO113,799304,34160.5,11400,0,1,public,2040
294,1718,LROP,Romania,Henri Coanda,26.102178,44.572161,2011,5028201,24134,5259343.5,0,0,208,2,RO,RO3,RO32,RO322,1282616,1821.2,34300,0,1,minor private,7000
292,1723,LRSB,Romania,Sibiu,24.091342,45.785597,2011,176876,39,2391383.5,0,0,15,1,RO,RO1,RO12,RO126,1435771,34099.7,12400,0,1,public,2630
295,1727,LRTR,Romania,Traian Vuia,21.337861,45.809861,2011,1227943,1295,2237446.5,0,0,66,1,RO,RO4,RO42,RO424,639657,32033.2,14700,0,1,minor private,3500
314,1758,LZIB,Slovakia,M R Stefanik,17.212667,48.170167,2011,1577414,20459,5328674,0,0,22,2,SK,SK0,SK01,SK010,878413,2052.5,46800,0,1,public,6090
315,1759,LZKZ,Slovakia,Kosice,21.241112,48.663055,2011,263502,83,2998844.5,0,0,6,1,SK,SK0,SK04,SK042,896132,15728.4,12800,0,1,public,3100
313,1629,LJLJ,Slovenia,Ljubljana,14.457611,46.223686,2011,1358792,6877,3041469.25,0,0,59,1,SI,SI0,SI02,SI022,1889543,8060.7,25600,0,1,minor private,3300
120,818,GCFV,Spain,Fuerteventura,-13.863761,28.452717,2011,4895403,1561,103492,1,1,158,2,ES,ES7,ES70,ES704,16926490,7447,21300,0,1,public,5546
131,829,GCHI,Spain,Hierro,-17.887056,27.814847,2011,169314,221,10162,1,1,4,1,ES,ES7,ES70,ES703,11636317,7447,21300,0,0,public,1250
121,833,GCLA,Spain,La Palma,-17.755611,28.626478,2011,1048911,923,86324,1,1,31,1,ES,ES7,ES70,ES707,11636317,7447,21300,0,1,public,2200
122,837,GCLP,Spain,Gran Canaria,-15.386586,27.931886,2011,10339466,28158,845676,1,1,299,2,ES,ES7,ES70,ES705,11636317,7447,21300,0,1,public,6200
123,841,GCRR,Spain,Lanzarote,-13.605225,28.945464,2011,5440041,2910,141437,1,1,217,1,ES,ES7,ES70,ES708,11636317,7447,21300,0,1,public,2400
124,845,GCTS,Spain,Tenerife Sur,-16.572489,28.044475,2011,8507260,4792,141437,1,1,316,1,ES,ES7,ES70,ES709,11636317,7447,21300,0,1,public,3200
125,852,GCXO,Spain,Tenerife Norte,-16.341536,28.482653,2011,4118009,16549,141437,1,1,55,1,ES,ES7,ES70,ES709,11636317,7447,21300,0,0,public,3394
119,855,GEML,Spain,Melilla,-2.956256,35.279817,2011,277717,274,1562416.625,1,1,8,1,ES,ES6,ES64,ES640,49763,13.4,19100,0,0,public,1428
108,912,LEAL,Spain,Alicante,-0.558156,38.282169,2011,9892302,2270,3031277.5,0,0,220,1,ES,ES5,ES52,ES521,8704100,23254.5,21700,0,1,public,3000
113,917,LEAM,Spain,Almeria,-2.370097,36.843936,2011,763762,5,760802.25,0,0,14,1,ES,ES6,ES61,ES611,16926490,87597.7,18700,0,1,public,3200
96,921,LEAS,Spain,Asturias,-6.034622,43.563567,2011,1333656,198,1003444.438,0,0,32,1,ES,ES1,ES12,ES120,1850924,10603.6,22600,0,1,public,2200
97,925,LEBB,Spain,Bilbao,-2.910608,43.301097,2011,4036722,2623,2564936,0,0,96,2,ES,ES2,ES21,ES213,2722600,7235.2,32100,0,0,public,4600
105,929,LEBL,Spain,Barcelona,2.078464,41.297078,2011,34314376,98016,5362373,0,0,551,3,ES,ES5,ES51,ES511,20071542,32113.4,28700,1,1,public,8740
92,934,LECO,Spain,A Coruna,-8.377256,43.302061,2011,1006727,259,1466059.5,0,0,16,1,ES,ES1,ES11,ES111,3785590,29574.4,21700,0,1,public,2338
106,942,LEGE,Spain,Girona,2.760547,41.900969,2011,2991065,57,5317424.5,0,0,42,1,ES,ES5,ES51,ES512,20071542,32113.4,28700,0,1,public,2400
114,944,LEGR,Spain,Granada,-3.777356,37.188731,2011,862621,45,2504637.5,0,0,14,1,ES,ES6,ES61,ES614,16926490,87597.7,18700,0,1,public,2900
110,949,LEIB,Spain,Ibiza,1.373117,38.872858,2011,5612913,3284,100974.0078,1,1,25,1,ES,ES5,ES53,ES531,9869849,4991.7,25600,0,1,public,2800
115,958,LEJR,Spain,Jerez,-6.060111,36.744622,2011,953631,47,2948827.75,0,0,20,1,ES,ES6,ES61,ES612,16926490,87597.7,18700,0,1,public,2300
118,963,LELC,Spain,Murcia San Javier,-0.812389,37.774972,2011,1262534,0,2392740.75,0,0,12,2,ES,ES6,ES62,ES620,1238516,11313.2,20100,0,1,public,3880
103,970,LEMD,Spain,Barajas,-3.566764,40.493556,2011,49531687,421832,6104501.5,0,0,587,4,ES,ES3,ES30,ES300,11080577,8027.7,33300,1,1,public,15449
116,977,LEMG,Spain,Malaga,-4.499106,36.6749,2011,12759548,3150,2370765.5,0,0,270,1,ES,ES6,ES61,ES617,16926490,87597.7,18700,1,1,public,3200
111,978,LEMH,Spain,Menorca,4.218647,39.862597,2011,2561368,2557,169825.4531,1,1,14,2,ES,ES5,ES53,ES533,9869849,4991.7,25600,0,1,public,4650
112,986,LEPA,Spain,Son Sant Joan,2.727778,39.55361,2011,22702799,16051,729989.8125,1,1,217,2,ES,ES5,ES53,ES532,9869849,4991.7,25600,0,1,public,6270
101,989,LEPP,Spain,Pamplona,-1.646331,42.770039,2011,230401,23,2173413.5,0,0,4,1,ES,ES2,ES22,ES220,1123147,10390.4,30800,0,0,public,2207
107,995,LERS,Spain,Reus,1.167172,41.147392,2011,1347890,36,4871541.5,0,0,14,1,ES,ES5,ES51,ES514,20071542,32113.4,28700,0,1,public,2459
98,1002,LESO,Spain,San Sebastian,-1.790611,43.356519,2011,240767,49,2494795.5,0,0,4,1,ES,ES2,ES21,ES212,2722600,7235.2,32100,0,0,public,1800
93,1007,LEST,Spain,Santiago,-8.415144,42.896333,2011,2446685,1273,2270382.75,0,0,48,1,ES,ES1,ES11,ES111,3785590,29574.4,21700,0,1,public,3200
109,1010,LEVC,Spain,Valencia,-0.481625,39.489314,2011,4967230,10324,2830582,0,0,119,1,ES,ES5,ES52,ES523,8704100,23254.5,21700,0,1,public,3215
104,1016,LEVD,Spain,Valladolid,-4.851944,41.706111,2011,452919,41,903630.375,0,0,8,1,ES,ES4,ES41,ES418,5181475,94225.9,23400,0,1,public,3005
99,1024,LEVT,Spain,Vitoria,-2.724469,42.882836,2011,23109,15007,2846150.5,0,0,2,1,ES,ES2,ES21,ES211,2722600,7235.2,32100,0,0,public,3500
94,1025,LEVX,Spain,Vigo,-8.626775,42.2318,2011,975982,1108,2607774.25,0,0,22,1,ES,ES1,ES11,ES114,3785590,29574.4,21700,0,0,public,2400
100,1033,LEXJ,Spain,Santander,-3.820006,43.427064,2011,1115200,1,1553327.625,0,0,28,1,ES,ES1,ES13,ES130,1574052,5321.3,23000,0,1,public,2420
102,1035,LEZG,Spain,Zaragoza Ab,-1.041553,41.666242,2011,750527,48151,1089723.75,0,0,24,2,ES,ES2,ES24,ES243,2699581,47720.3,27200,0,1,public,6742
117,1041,LEZL,Spain,Sevilla,-5.893106,37.418,2011,4940062,3562,2655515.75,0,0,94,1,ES,ES6,ES61,ES618,16926490,87597.7,18700,0,1,public,3360
302,704,ESDF,Sweden,Ronneby,15.265,56.266667,2011,227497,5,524096.75,0,0,6,1,SE,SE2,SE22,SE221,2726777,14423.9,27800,0,0,public,2331
305,707,ESGG,Sweden,Landvetter,12.279819,57.662836,2011,4906329,43542,1489108.625,0,0,85,1,SE,SE2,SE23,SE232,5072180,31108.3,31500,0,1,public,3299
306,714,ESGP,Sweden,Save,11.870372,57.774722,2011,772858,29,1418718.125,0,0,24,2,SE,SE2,SE23,SE232,5072180,31108.3,31500,0,1,public,2910
298,720,ESKN,Sweden,Skavsta,16.912189,58.788636,2011,2581305,6,2445494.25,0,0,56,2,SE,SE1,SE12,SE122,2807993,41413.9,28700,0,1,public,4917
303,725,ESMS,Sweden,Sturup,13.371639,55.530193,2011,1945895,33175,3045809.75,0,0,28,2,SE,SE2,SE22,SE224,2726777,14423.9,27800,0,1,public,3600
300,732,ESMX,Sweden,Kronoberg,14.727994,56.929144,2011,180692,140,721767.375,0,0,8,1,SE,SE2,SE21,SE212,2241341,35560.3,28100,0,0,public,2103
309,736,ESNN,Sweden,Sundsvall Harnosand,17.443928,62.528125,2011,282291,2162,207086.9375,0,0,10,1,SE,SE3,SE32,SE321,1190619,77207,29400,0,0,public,2090
310,741,ESNQ,Sweden,Kiruna,20.336764,67.821986,2011,164208,580,30792.7207,0,0,6,1,SE,SE3,SE33,SE332,1590712,165295.6,32200,0,0,public,2502
311,749,ESNU,Sweden,Umea,20.282758,63.791828,2011,956255,4732,199840.4531,0,0,16,1,SE,SE3,SE33,SE331,1590712,165295.6,32200,0,1,public,2302
308,757,ESNZ,Sweden,Ostersund Airport,14.5003,63.1944,2011,377976,67,97042.38281,0,0,6,2,SE,SE3,SE32,SE322,1190619,77207,29400,0,1,public,3730
307,761,ESOK,Sweden,Karlstad Airport,13.3374,59.4447,2011,108784,146,423327.625,0,0,8,1,SE,SE3,SE31,SE311,2502313,69549,26800,0,0,public,2516
299,764,ESOW,Sweden,Vasteras,16.633611,59.589444,2011,144434,5730,2688368,0,0,2,1,SE,SE1,SE12,SE125,2807993,41413.9,28700,0,1,public,3381
312,771,ESPA,Sweden,Kallax,22.121989,65.543758,2011,1066702,1449,185112.4844,0,0,10,1,SE,SE3,SE33,SE332,1590712,165295.6,32200,0,1,public,3350
296,773,ESSA,Sweden,Arlanda,17.918611,59.651944,2011,19058651,82520,2534771.25,0,0,343,3,SE,SE1,SE11,SE110,5692303,6789.2,46200,1,1,public,8301
297,782,ESSB,Sweden,Bromma,17.94165,59.354372,2011,2182992,413,2521073.5,0,0,60,1,SE,SE1,SE11,SE110,5692303,6789.2,46200,0,0,public,1668
301,784,ESSV,Sweden,Visby,18.346211,57.662797,2011,338688,805,57104.62109,1,0,14,1,SE,SE2,SE21,SE214,2241341,35560.3,28100,0,1,public,2000
304,788,ESTA,Sweden,Angelholm-Helsingborg Airport,12.8471,56.2961,2011,396720,5,3063030.5,0,0,12,1,SE,SE2,SE22,SE224,2726777,14423.9,27800,0,0,public,1945
13,1729,LSGG,Switzerland,Geneve Cointrin,6.10895,46.238064,2011,13003611,38320,3619622.25,0,0,346,1,CH,CH0,CH01,CH013,1802258.428,8718.8,41200,1,1,public,3900
17,1738,LSZA,Switzerland,Lugano,8.910578,46.004275,2011,165054,71,8534680,0,0,6,1,CH,CH0,CH07,CH070,581308.3396,2812.2,41200,0,0,public,1420
14,1739,LSZB,Switzerland,Bern Belp,7.497153,46.9141,2011,169288,0,5989487.5,0,0,28,1,CH,CH0,CH02,CH021,2079931.244,10062.1,41200,0,1,major private,1730
15,1746,LSZH,Switzerland,Zurich,8.549167,47.464722,2011,24313250,314653,7432270,0,0,438,3,CH,CH0,CH04,CH040,357400.654,1729,41200,1,1,major private,9500
16,1752,LSZR,Switzerland,St Gallen Altenrhein,9.560775,47.485033,2011,94834,0,5598415,0,0,4,1,CH,CH0,CH05,CH055,2381520.344,11521.1,41200,0,1,private,1500
352,260,EGAA,United Kingdom,Belfast Intl,-6.215833,54.6575,2011,4101907,46490,1988462.625,0,0,58,2,UK,UKN,UKN0,UKN03,1161928,14129.7,21300,0,1,private,4671
353,266,EGAC,United Kingdom,Belfast City,-5.8725,54.618056,2011,2392382,459,1804991.125,0,0,38,1,UK,UKN,UKN0,UKN01,1161928,14129.7,21300,0,1,private,1829
354,272,EGAE,United Kingdom,City of Derry,-7.161111,55.042778,2011,405568,0,1609857,0,0,8,1,UK,UKN,UKN0,UKN04,1161928,14129.7,21300,0,1,public,1969
325,276,EGBB,United Kingdom,Birmingham,-1.748028,52.453856,2011,8606497,16642,11383439,0,0,195,1,UK,UKG,UKG3,UKG32,2015535,901.6,22800,0,1,major private,3052
334,282,EGBJ,United Kingdom,Gloucestershire,-2.167222,51.894167,2011,14737,0,10438338,0,0,2,3,UK,UKK,UKK1,UKK13,2908003,7703.9,29100,0,0,private,3218
319,284,EGCC,United Kingdom,Manchester,-2.27495,53.353744,2011,18803819,108537,14981104,0,0,420,2,UK,UKD,UKD6,UKD62,798599,2289.9,29800,1,1,public,6098
322,289,EGCN,United Kingdom,Robin Hood Doncaster Sheffield Airport,-1.004444,53.474722,2011,821603,102,11437719,0,0,26,1,UK,UKE,UKE3,UKE31,520171,1552.1,19300,0,1,major private,2893
343,298,EGEC,United Kingdom,Campbeltown Airport,-5.68639,55.4372,2011,9201,0,2132951,0,0,2,1,UK,UKM,UKM6,UKM63,2330661,41960.2,21600,0,0,public,1750
338,300,EGFF,United Kingdom,Cardiff,-3.343333,51.396667,2011,1208202,1397,5237179.5,0,0,37,1,UK,UKL,UKL2,UKL22,1454983,7781.7,24000,0,1,public,2392
335,308,EGGD,United Kingdom,Bristol,-2.719089,51.382669,2011,5767628,256,6665229.5,0,0,145,1,UK,UKK,UKK1,UKK12,2908003,7703.9,29100,0,1,private,2011
320,311,EGGP,United Kingdom,Liverpool,-2.849722,53.333611,2011,5246414,168,11115432,0,0,94,1,UK,UKD,UKD7,UKD72,1322244,907.9,21300,0,1,major private,2285
327,317,EGGW,United Kingdom,Luton,-0.368333,51.874722,2011,9509911,27905,18556414,0,0,162,1,UK,UKH,UKH2,UKH21,852037,2878.5,28400,0,1,public,2162
336,324,EGHH,United Kingdom,Bournemouth,-1.8425,50.78,2011,612499,10828,5536124,0,0,12,1,UK,UKK,UKK2,UKK22,2570652,6208.8,22400,0,1,public,2271
333,328,EGHI,United Kingdom,Southampton,-1.356803,50.950261,2011,1761961,132,10460341,0,0,64,1,UK,UKJ,UKJ3,UKJ33,2142125,4249.3,28000,0,1,private,1723
332,333,EGKK,United Kingdom,Gatwick,-0.190278,51.148056,2011,33638323,92056,17583626,0,0,470,2,UK,UKJ,UKJ2,UKJ24,2707179,5504.2,28000,1,1,private,5881
329,339,EGLC,United Kingdom,City,0.055278,51.505278,2011,2941781,0,18328776,0,0,116,1,UK,UKI,UKI1,UKI12,14090472,327.9,82200,0,1,private,1508
330,342,EGLL,United Kingdom,Heathrow,-0.461389,51.4775,2011,69388105,1569303,19281818,0,0,915,3,UK,UKI,UKI2,UKI23,4318329,1266.8,23100,1,1,private,9762
318,354,EGNH,United Kingdom,Blackpool,-3.028611,53.771667,2011,235669,3,8918233,0,0,8,2,UK,UKD,UKD4,UKD43,1510462,3263.2,20300,0,0,private,2873
321,355,EGNJ,United Kingdom,Humberside,-0.350833,53.574444,2011,273096,1132,6341859.5,0,0,8,2,UK,UKE,UKE1,UKE13,595961,3657.5,20600,0,0,public,3056
323,360,EGNM,United Kingdom,Leeds Bradford,-1.660569,53.865897,2011,2909527,191,12223893,0,0,90,1,UK,UKE,UKE4,UKE42,1212968,2029.2,24100,0,1,private,2250
317,366,EGNT,United Kingdom,Newcastle,-1.691667,55.0375,2011,4336304,11592,2933619.75,0,0,108,1,UK,UKC,UKC2,UKC22,1276989,5629.5,21800,0,1,minor private,2329
316,374,EGNV,United Kingdom,Durham Tees Valley Airport,-1.429406,54.509189,2011,190284,3,5540788,0,0,12,1,UK,UKC,UKC1,UKC13,547952,3046.8,18700,0,1,major private,2291
324,376,EGNX,United Kingdom,Nottingham East Midlands,-1.328056,52.831111,2011,4208260,298752,13978685,0,0,115,1,UK,UKF,UKF2,UKF22,1084029,4917.9,23900,0,1,public,2893
344,383,EGPA,United Kingdom,Kirkwall,-2.905,58.957778,2011,133930,85,44056.8125,1,0,22,2,UK,UKM,UKM6,UKM65,2330661,41960.2,21600,0,0,public,2108
345,385,EGPB,United Kingdom,Sumburgh,-1.295556,59.878889,2011,142612,317,21620.57227,1,0,10,2,UK,UKM,UKM6,UKM66,2330661,41960.2,21600,0,0,public,2926
346,390,EGPC,United Kingdom,Wick,-3.093056,58.458889,2011,24262,0,130218.1797,0,0,4,1,UK,UKM,UKM6,UKM61,2330661,41960.2,21600,0,0,public,1825
342,397,EGPD,United Kingdom,Dyce,-2.197778,57.201944,2011,3082575,5647,812420.1875,0,0,74,1,UK,UKM,UKM5,UKM50,761264,6498.3,41800,0,0,private,1953
347,400,EGPE,United Kingdom,Inverness,-4.0475,57.5425,2011,579123,199,323387.6563,0,0,25,2,UK,UKM,UKM6,UKM62,2330661,41960.2,21600,0,1,public,2587
340,407,EGPF,United Kingdom,Glasgow,-4.433056,55.871944,2011,6858264,2475,3729444.75,0,0,135,1,UK,UKM,UKM3,UKM35,2424237,13437.5,23000,0,1,private,2665
339,411,EGPH,United Kingdom,Edinburgh,-3.3725,55.95,2011,9383242,44308,4115255,0,0,174,2,UK,UKM,UKM2,UKM25,3784313,18296.4,25400,0,1,private,4353
348,415,EGPI,United Kingdom,Islay,-6.256667,55.681944,2011,25784,283,505119.375,0,0,2,2,UK,UKM,UKM6,UKM63,2330661,41960.2,21600,0,0,public,2180
341,423,EGPK,United Kingdom,Prestwick,-4.586667,55.509444,2011,1295512,11853,3354543,0,0,30,2,UK,UKM,UKM3,UKM37,2424237,13437.5,23000,0,1,private,4891
349,426,EGPL,United Kingdom,Benbecula,-7.362778,57.481111,2011,34240,172,28731.46289,1,0,6,2,UK,UKM,UKM6,UKM64,2330661,41960.2,21600,0,0,public,3056
355,431,EGPN,United Kingdom,Dundee,-3.025833,56.452499,2011,61629,0,2785175.25,0,0,2,1,UK,UKM,UKM2,UKM21,3784313,18296.4,25400,0,0,public,1400
350,435,EGPO,United Kingdom,Stornoway,-6.331111,58.215556,2011,122439,115,34248.78906,1,0,10,2,UK,UKM,UKM6,UKM64,2330661,41960.2,21600,0,0,public,3315
356,440,EGPR,United Kingdom,Barra Airport,-7.44306,57.0228,2011,10482,28,17988.54492,0,0,4,1,UK,UKM,UKM6,UKM64,2330661,41960.2,21600,0,0,public,2325
351,448,EGPU,United Kingdom,Tiree,-6.869167,56.499167,2011,8310,55,30597.93164,1,0,2,3,UK,UKM,UKM6,UKM63,2330661,41960.2,21600,0,0,public,3063
326,452,EGSH,United Kingdom,Norwich,1.282778,52.675833,2011,413837,330,2444117,0,0,18,1,UK,UKH,UKH1,UKH13,2614559,12746.6,25300,0,1,major private,1841
328,459,EGSS,United Kingdom,Stansted,0.235,51.885,2011,18043407,230162,17292312,0,0,265,1,UK,UKH,UKH3,UKH33,743574,3946.9,22500,1,1,private,3049
337,464,EGTE,United Kingdom,Exeter,-3.413889,50.734444,2011,707414,5565,3836831.25,0,0,46,1,UK,UKK,UKK4,UKK43,2416517,6839.7,21200,0,1,private,2076
331,467,EGTK,United Kingdom,Kidlington,-1.32,51.836944,2011,1500,0,18645106,0,0,4,2,UK,UKJ,UKJ1,UKJ14,2620965,5743.4,38700,0,0,private,2312
